City,Lat,Lng,Max Temp,Humidity,Cloudiness,Wind Speed,Country,Date
Hong Kong,22.2855,114.1577,71.01,66,28,1.01,HK,1614679604
Yellowknife,62.456,-114.3525,-9.0,70,90,8.05,CA,1614679697
Kelo,9.3086,15.8066,97.93,8,0,8.93,TD,1614679697
Ous,60.9058,61.5186,16.41,96,100,11.86,RU,1614679697
Ushuaia,-54.8,-68.3,42.8,81,0,3.44,AR,1614679697
Pevek,69.7008,170.3133,-27.38,86,2,4.43,RU,1614679698
Kruisfontein,-34.0033,24.7314,93.0,41,38,5.01,ZA,1614679698
Longyearbyen,78.2186,15.6401,15.8,73,75,9.22,SJ,1614679469
Punta Arenas,-53.15,-70.9167,35.6,93,0,11.5,CL,1614679698
Rikitea,-23.1203,-134.9692,77.81,67,53,5.53,PF,1614679698
Norman Wells,65.282,-126.8329,-7.6,64,90,18.41,CA,1614679699
Bredasdorp,-34.5322,20.0403,82.4,51,0,8.05,ZA,1614679699
Burnie,-41.0667,145.9167,55.0,64,52,5.01,AU,1614679699
Ribeira Grande,38.5167,-28.7,55.4,88,75,18.41,PT,1614679699
Mataura,-46.1927,168.8643,57.99,93,35,1.01,NZ,1614679699
Tuktoyaktuk,69.4541,-133.0374,-18.96,83,90,11.68,CA,1614679699
Bluff,-46.6,168.3333,57.99,93,19,1.01,NZ,1614679699
Rafai,4.95,23.9167,101.48,9,37,7.43,CF,1614679700
Butaritari,3.0707,172.7902,81.64,82,66,13.53,KI,1614679700
Castro,-24.7911,-50.0119,60.39,97,100,5.01,BR,1614679700
Poum,-20.2333,164.0167,81.36,71,100,5.68,NC,1614679700
Richards Bay,-28.783,32.0377,82.35,58,0,7.34,ZA,1614679700
Jamestown,42.097,-79.2353,18.0,91,90,13.53,US,1614679529
Nyurba,63.2842,118.3319,-25.73,84,82,3.4,RU,1614679701
Guerrero Negro,27.9769,-114.0611,53.4,44,0,2.19,MX,1614679701
Kulhudhuffushi,6.6221,73.07,83.66,62,12,10.69,MV,1614679701
Chumikan,54.7183,135.315,-9.45,81,3,14.16,RU,1614679701
Busselton,-33.65,115.3333,77.14,52,84,9.19,AU,1614679702
George Town,5.4112,100.3354,91.4,58,20,12.66,MY,1614679702
Wanaka,-44.7,169.15,54.88,91,52,5.57,NZ,1614679702
Kaitangata,-46.2817,169.8464,57.88,95,53,3.87,NZ,1614679702
Tessalit,20.1986,1.0114,87.3,12,44,12.8,ML,1614679703
Lompoc,34.6391,-120.4579,48.0,69,1,3.18,US,1614679657
Vaini,-21.2,-175.2,75.2,94,90,3.44,TO,1614679703
Albany,42.6001,-73.9662,12.0,49,20,7.0,US,1614679703
Barinitas,8.7622,-70.4111,67.08,45,30,4.43,VE,1614679704
Port Blair,11.6667,92.75,86.0,62,20,10.36,IN,1614679704
Bonfim,3.0833,-59.95,73.83,69,73,7.47,BR,1614679704
Vila Franca do Campo,37.7167,-25.4333,57.2,72,40,9.22,PT,1614679704
Adrar,20.5022,-10.0711,69.04,20,16,15.64,MR,1614679704
Port Alfred,-33.5906,26.891,85.21,48,0,18.14,ZA,1614679704
Mutsu,41.2894,141.2169,37.0,80,75,17.27,JP,1614679705
Dyurtyuli,55.4911,54.8688,17.89,96,100,16.91,RU,1614679705
Hermanus,-34.4187,19.2345,77.0,61,0,7.0,ZA,1614679705
Upernavik,72.7868,-56.1549,3.72,50,92,11.86,GL,1614679705
Prince Rupert,54.3161,-130.3201,39.2,87,90,13.8,CA,1614679705
Severo-Kuril'sk,50.6789,156.125,22.64,96,100,12.77,RU,1614679705
Faanui,-16.4833,-151.75,82.69,76,7,7.38,PF,1614679705
Fortuna,40.5982,-124.1573,39.2,100,1,8.05,US,1614679666
Sharan,54.8167,54.0,18.23,96,100,20.47,RU,1614679706
Barcelona,41.3888,2.159,59.0,71,0,18.41,ES,1614679483
Baykit,61.67,96.37,-17.27,93,100,3.36,RU,1614679706
Zhuanghe,39.7008,122.9911,35.01,62,0,1.01,CN,1614679706
Broken Hill,-31.95,141.4333,75.2,22,40,13.8,AU,1614679706
Homer,59.6425,-151.5483,28.0,86,90,4.61,US,1614679707
Cairns,-16.9167,145.7667,78.8,83,90,13.8,AU,1614679707
Atuona,-9.8,-139.0333,79.39,73,2,12.39,PF,1614679707
Roswell,34.0232,-84.3616,43.0,56,1,5.75,US,1614679493
Chokurdakh,70.6333,147.9167,-30.73,83,81,4.38,RU,1614679708
Hilo,19.7297,-155.09,71.6,73,75,11.5,US,1614679708
Balkhash,46.844,74.9804,37.4,75,0,4.47,KZ,1614679708
Bismil,37.8486,40.6658,55.4,58,40,3.44,TR,1614679708
Caravelas,-17.7125,-39.2481,78.19,78,6,6.22,BR,1614679708
Monrovia,6.3005,-10.7969,86.0,74,40,3.44,LR,1614679709
Kapaa,22.0752,-159.319,68.0,83,90,26.46,US,1614679709
Nizhneangarsk,55.7833,109.55,-3.15,91,95,0.81,RU,1614679709
Arcata,40.8665,-124.0828,39.99,100,1,4.03,US,1614679652
Cabo San Lucas,22.8909,-109.9124,61.0,55,62,3.0,MX,1614679709
Hobart,-42.8794,147.3294,51.8,58,40,9.22,AU,1614679709
Qaanaaq,77.484,-69.3632,-13.68,68,3,9.08,GL,1614679710
Birao,10.2849,22.7882,94.37,9,39,12.62,CF,1614679710
Port Elizabeth,-33.918,25.5701,84.2,54,0,4.61,ZA,1614679710
Grindavik,63.8424,-22.4338,41.0,100,90,5.75,IS,1614679710
Avarua,-21.2078,-159.775,80.6,83,40,4.61,CK,1614679710
Lebu,-37.6167,-73.65,58.6,95,74,11.34,CL,1614679710
Pingxiang,27.6167,113.85,51.64,78,98,3.62,CN,1614679711
Nome,64.5011,-165.4064,-5.8,65,1,9.22,US,1614679711
Bermeo,43.4209,-2.7215,61.0,55,0,10.36,ES,1614679711
Bathsheba,13.2167,-59.5167,75.2,60,20,16.11,BB,1614679711
Korem,12.5058,39.5228,56.89,86,97,7.63,ET,1614679711
Inhambane,-23.865,35.3833,84.2,70,40,9.22,MZ,1614679712
Talnakh,69.4865,88.3972,-26.03,76,0,8.05,RU,1614679646
Nikolskoye,59.7035,30.7861,37.4,70,40,22.37,RU,1614679712
Beira,-19.8436,34.8389,84.2,74,75,11.5,MZ,1614679712
Korla,41.7597,86.1469,45.91,51,0,9.35,CN,1614679712
Lokosovo,61.1333,74.8167,4.59,93,98,9.55,RU,1614679713
Dunedin,-45.8742,170.5036,64.99,81,41,4.23,NZ,1614679713
Siguiri,11.6667,-9.5,92.34,11,10,6.55,GN,1614679713
Arraial do Cabo,-22.9661,-42.0278,77.0,83,40,16.11,BR,1614679713
East London,-33.0153,27.9116,82.4,54,0,6.91,ZA,1614679714
Ngunguru,-35.6167,174.5,66.0,87,39,3.0,NZ,1614679714
Beringovskiy,63.05,179.3167,-15.84,83,68,13.73,RU,1614679714
Port-Gentil,-0.7193,8.7815,80.6,89,75,6.91,GA,1614679715
Souillac,-20.5167,57.5167,82.4,69,75,13.8,MU,1614679715
San Luis,-33.295,-66.3356,69.96,55,0,9.04,AR,1614679439
Nemuro,43.3236,145.575,28.4,93,75,3.44,JP,1614679715
Hualmay,-11.0964,-77.6139,72.25,72,77,3.18,PE,1614679715
Pontianak,-0.0333,109.3333,86.0,74,40,8.05,ID,1614679715
Roald,62.5833,6.1333,42.8,100,90,4.61,NO,1614679716
Dikson,73.5069,80.5464,-20.45,90,0,7.81,RU,1614679716
Sistranda,63.7256,8.834,41.0,87,40,13.8,NO,1614679716
Hasaki,35.7333,140.8333,50.0,93,75,12.66,JP,1614679716
Puerto Ayora,-0.7393,-90.3518,73.99,99,26,6.11,EC,1614679716
Thompson,55.7435,-97.8558,1.4,85,90,2.3,CA,1614679716
Agirish,61.9247,63.0231,11.66,90,100,11.03,RU,1614679717
Hoquiam,46.9809,-123.8893,44.01,87,90,11.5,US,1614679717
Carnarvon,-24.8667,113.6333,78.8,73,90,14.97,AU,1614679717
Kiryat Gat,31.61,34.7642,64.99,53,90,3.0,IL,1614679717
Philadelphia,39.9523,-75.1638,28.4,34,1,16.11,US,1614679649
Sitka,57.0531,-135.33,39.2,81,90,14.97,US,1614679718
Arrecife,28.963,-13.5477,66.2,72,40,16.11,ES,1614679718
Katangli,51.7102,143.2326,-8.09,92,67,2.55,RU,1614679718
Jalu,29.0331,21.5482,68.41,32,0,4.5,LY,1614679718
Praia,14.9215,-23.5087,69.8,68,0,18.41,CV,1614679719
Lavrentiya,65.5833,-171.0,-21.96,89,67,9.1,RU,1614679719
Bangolo,7.0069,-7.475,84.63,63,40,3.53,CI,1614679719
Tual,-5.6667,132.75,82.92,77,35,13.98,ID,1614679719
Provideniya,64.3833,-173.3,-15.99,81,75,10.42,RU,1614679719
Mairana,-18.1167,-63.9333,58.55,78,89,1.97,BO,1614679720
Oistins,13.0667,-59.5333,75.2,60,20,16.11,BB,1614679720
Uyuni,-20.4597,-66.825,49.71,71,70,8.12,BO,1614679720
Timmins,48.4669,-81.3331,-9.4,77,1,5.75,CA,1614679720
Mookane,-23.688,26.6595,76.48,49,56,5.64,BW,1614679721
Ixtapa,20.7,-105.2,66.0,88,0,3.02,MX,1614679721
Coahuayana Viejo,18.7333,-103.6833,67.68,63,0,3.0,MX,1614679721
Saint-Philippe,-21.3585,55.7679,87.8,58,0,25.32,RE,1614679721
Kajaani,64.2273,27.7285,30.2,64,20,9.22,FI,1614679721
Cassilândia,-19.1133,-51.7342,68.88,94,89,6.04,BR,1614679722
Nanortalik,60.1432,-45.2371,23.22,80,0,9.84,GL,1614679722
Magán,39.9683,-3.931,55.0,59,86,11.95,ES,1614679722
Cape Town,-33.9258,18.4232,79.0,68,20,12.66,ZA,1614679722
Tura,25.5198,90.2201,85.89,16,0,7.63,IN,1614679723
Cherskiy,68.75,161.3,-34.78,98,56,3.06,RU,1614679723
Hīt,33.6416,42.8251,72.57,25,2,10.2,IQ,1614679723
Isiro,2.7739,27.616,95.23,17,61,6.33,CD,1614679723
Zhigansk,66.7697,123.3711,-25.64,86,100,2.19,RU,1614679723
Pisco,-13.7,-76.2167,73.99,83,0,2.3,PE,1614679551
Hofn,64.2539,-15.2082,40.8,68,94,4.25,IS,1614679724
San Miguel de Cozumel,20.5083,-86.9458,78.01,83,1,8.05,MX,1614679724
Chapais,49.7834,-74.8492,-16.6,69,90,17.27,CA,1614679724
Ust-Nera,64.5667,143.2,-18.89,95,100,4.07,RU,1614679724
İdil,37.3411,41.8895,57.2,54,75,10.36,TR,1614679724
Cidreira,-30.1811,-50.2056,73.67,88,1,9.53,BR,1614679724
Kirakira,-10.4544,161.9205,80.87,77,97,4.21,SB,1614679725
Montepuez,-13.1256,38.9997,83.25,67,95,2.75,MZ,1614679725
Boa Vista,2.8197,-60.6733,77.0,69,75,11.5,BR,1614679725
Madang,-5.2246,145.7966,78.6,91,100,7.83,PG,1614679725
Esperance,-33.8667,121.9,73.4,64,40,17.27,AU,1614679725
Saint-Joseph,-21.3667,55.6167,87.8,58,0,25.32,RE,1614679725
Abilene,32.4487,-99.7331,36.0,75,1,3.36,US,1614679450
Trairi,-3.2778,-39.2689,76.64,89,49,6.64,BR,1614679725
Bethel,41.3712,-73.414,19.4,38,40,13.8,US,1614679557
Liberal,37.0431,-100.921,21.2,63,1,8.05,US,1614679692
Saskylakh,71.9167,114.0833,-39.01,80,78,2.46,RU,1614679726
Kavaratti,10.5669,72.642,82.58,67,0,4.27,IN,1614679726
La Santisima Trinidad,-14.8333,-64.9,77.0,94,75,5.75,BO,1614679726
Pakokku,21.3333,95.1,97.14,12,0,6.64,MM,1614679727
Champerico,14.3,-91.9167,60.01,81,2,1.99,GT,1614679727
Rabo de Peixe,37.8,-25.5833,57.2,72,40,9.22,PT,1614679727
Hithadhoo,-0.6,73.0833,82.99,71,16,12.73,MV,1614679727
Rio Verde de Mato Grosso,-18.9181,-54.8442,70.75,92,32,5.75,BR,1614679446
Cedar City,37.6775,-113.0619,24.8,46,1,3.44,US,1614679728
Kédougou,12.5579,-12.1743,82.4,17,0,6.91,SN,1614679728
New Norfolk,-42.7826,147.0587,51.01,60,52,3.0,AU,1614679728
Xichang,27.8964,102.2634,50.49,84,93,3.11,CN,1614679728
Half Moon Bay,37.4636,-122.4286,48.2,61,1,3.89,US,1614679728
Genhe,50.7833,121.5167,4.41,93,100,2.53,CN,1614679728
Chui,-33.6971,-53.4616,71.31,93,1,6.89,UY,1614679728
Thinadhoo,0.5333,72.9333,83.08,73,19,12.35,MV,1614679729
Seymchan,62.8833,152.4333,-24.83,81,100,1.07,RU,1614679729
Vao,-22.6667,167.4833,77.59,71,17,12.3,NC,1614679573
Tolaga Bay,-38.3667,178.3,62.44,80,9,5.68,NZ,1614679730
Torbay,47.6666,-52.7314,33.01,93,90,21.85,CA,1614679519
Bambous Virieux,-20.3428,57.7575,87.01,69,75,13.8,MU,1614679730
Ponta do Sol,32.6667,-17.1,62.6,55,20,4.61,PT,1614679730
Usinsk,65.9939,57.5281,16.77,92,98,13.44,RU,1614679730
Kalispell,48.1958,-114.3129,39.99,65,1,11.5,US,1614679730
Muros,42.7762,-9.0603,55.99,81,90,4.0,ES,1614679539
Alofi,-19.0595,-169.9187,73.4,100,84,3.44,NU,1614679731
Mingora,34.7758,72.3625,69.01,23,65,2.86,PK,1614679731
Fairbanks,64.8378,-147.7164,1.0,84,20,2.37,US,1614679652
Dongsheng,39.8161,109.9776,39.78,57,0,11.48,CN,1614679731
Ola,59.5833,151.2833,1.67,92,100,9.13,RU,1614679732
Talara,-4.5772,-81.2719,73.81,83,100,4.38,PE,1614679732
Jamundí,3.2607,-76.535,66.2,94,75,1.05,CO,1614679732
Mar del Plata,-38.0023,-57.5575,69.01,94,75,3.44,AR,1614679653
Urucará,-2.5364,-57.76,70.39,98,98,1.48,BR,1614679732
Manakara,-22.1333,48.0167,84.83,60,99,7.96,MG,1614679695
Karratha,-20.7377,116.8463,82.98,62,100,23.94,AU,1614679732
Port Lincoln,-34.7333,135.8667,62.31,66,81,15.99,AU,1614679732
Oblivskaya,48.5362,42.5014,39.96,57,96,20.11,RU,1614679732
Geraldton,-28.7667,114.6,77.0,61,1,12.66,AU,1614679733
Marcali,46.585,17.412,44.6,76,0,1.14,HU,1614679733
Tasiilaq,65.6145,-37.6368,14.0,52,64,3.44,GL,1614679733
Shiyan,32.6475,110.7781,54.86,48,84,9.17,CN,1614679733
Palatka,29.6486,-81.6376,63.0,76,100,6.96,US,1614679734
Mareeba,-17.0,145.4333,78.8,83,90,13.8,AU,1614679734
Sittwe,20.15,92.9,80.62,68,0,15.37,MM,1614679734
Manaure,11.7751,-72.4445,72.72,76,88,14.18,CO,1614679734
Coruripe,-10.1256,-36.1756,79.74,72,6,11.79,BR,1614679734
Leningradskiy,69.3833,178.4167,-23.69,85,98,6.35,RU,1614679734
Amapá,1.0,-52.0,70.77,98,100,0.69,BR,1614679735
Saint-Augustin,51.226,-58.6502,27.91,98,100,31.05,CA,1614679735
Yagodnoye,62.55,149.6667,-21.48,95,100,1.43,RU,1614679735
Khatanga,71.9667,102.5,-32.84,83,48,7.7,RU,1614679735
Srednebelaya,50.6594,128.0106,3.2,60,20,2.24,RU,1614679736
San Patricio,28.017,-97.5169,55.4,76,90,14.97,US,1614679736
Bandar,2.05,99.75,84.54,76,21,3.91,ID,1614679691
Yar-Sale,66.8333,70.8333,3.31,92,100,17.09,RU,1614679736
Mayumba,-3.432,10.6554,82.49,82,100,7.54,GA,1614679736
Annau,37.8876,58.516,53.6,47,75,9.22,TM,1614679736
Bengkulu,-3.8004,102.2655,81.84,83,99,3.44,ID,1614679737
Mossamedes,-15.1961,12.1522,75.2,69,0,12.66,AO,1614679737
Taoudenni,22.6783,-3.9836,75.67,19,0,11.1,ML,1614679737
Vanavara,60.34,102.2797,-13.43,93,100,4.5,RU,1614679737
Mount Gambier,-37.8333,140.7667,55.4,58,40,14.97,AU,1614679737
Tarko-Sale,64.9225,77.785,-4.9,89,100,19.69,RU,1614679738
Marsá Maţrūḩ,31.3525,27.2453,60.8,55,40,8.05,EG,1614679738
Atar,20.5169,-13.0499,70.79,23,2,15.7,MR,1614679738
Arosa,46.7779,9.6762,48.99,50,0,1.14,CH,1614679739
Nouadhibou,20.931,-17.0347,62.6,63,0,20.71,MR,1614679739
Karachi,24.9056,67.0822,87.8,9,0,11.5,PK,1614679739
Samarai,-10.6167,150.6667,81.36,80,100,8.86,PG,1614679740
Hjelset,62.7833,7.4833,41.0,100,90,1.14,NO,1614679740
Fort Nelson,58.8053,-122.7002,-4.0,84,75,3.02,CA,1614679740
Pisa,43.7155,10.3966,57.99,38,0,5.75,IT,1614679740
Bandarbeyla,9.4942,50.8122,80.91,64,25,15.14,SO,1614679740
Omboué,-1.5746,9.2618,87.21,70,96,3.76,GA,1614679741
Padang,-0.9492,100.3543,73.4,100,75,4.61,ID,1614679496
Kenai,60.5544,-151.2583,17.6,79,90,3.44,US,1614679741
Lumby,50.2498,-118.969,37.4,75,33,2.3,CA,1614679741
Krasnosel'kup,65.7,82.4667,-9.18,89,76,14.9,RU,1614679741
Husavik,66.0449,-17.3389,37.4,70,90,2.3,IS,1614679741
São Félix do Xingu,-6.6447,-51.995,70.07,96,98,1.1,BR,1614679742
Marshalltown,42.0494,-92.908,18.0,81,0,7.0,US,1614679742
Ancud,-41.8697,-73.8203,51.01,100,0,4.61,CL,1614679742
Båtsfjord,70.6345,29.7185,32.0,68,75,29.93,NO,1614679742
Barrow,71.2906,-156.7887,-20.2,69,75,13.8,US,1614679743
Mgandu,-5.95,34.1333,75.74,68,39,9.06,TZ,1614679743
Andenes,69.3143,16.1194,37.4,81,75,21.85,NO,1614679743
Shingū,33.7333,135.9833,46.4,61,20,24.16,JP,1614679743
Qeshm,26.9581,56.2719,84.2,24,20,9.22,IR,1614679744
Port Jervis,41.3751,-74.6927,19.4,42,1,5.75,US,1614679744
Kyabé,9.4515,18.9449,99.59,8,0,11.9,TD,1614679744
Constitución,-35.3333,-72.4167,59.23,85,0,1.79,CL,1614679744
Port Augusta,-32.5,137.7667,77.0,64,40,17.27,AU,1614679558
Asahi,35.7167,140.65,50.0,93,75,12.66,JP,1614679745
Gaza,31.5,34.4667,64.99,53,71,1.99,PS,1614679745
Cap-aux-Meules,47.3821,-61.8597,24.8,86,100,32.21,CA,1614679745
Pitimbu,-7.4706,-34.8086,75.2,100,40,4.61,BR,1614679745
Arrondissement du Havre,49.5833,0.3333,50.0,66,0,9.22,FR,1614679746
Rakke,58.9817,26.2544,37.22,80,0,13.2,EE,1614679746
Mahébourg,-20.4081,57.7,82.4,69,75,13.8,MU,1614679746
Baruun-Urt,46.6806,113.2792,17.08,93,97,10.0,MN,1614679746
Brigantine,39.4101,-74.3646,30.2,43,1,17.27,US,1614679746
Cirò Marina,39.3732,17.126,55.99,58,0,14.97,IT,1614679747
Sandnessjøen,66.0217,12.6316,39.2,81,75,13.8,NO,1614679747
Nuuk,64.1835,-51.7216,24.8,42,75,3.44,GL,1614679747
Luwuk,-0.9516,122.7875,81.99,70,100,5.66,ID,1614679747
Beloha,-25.1667,45.05,88.16,54,36,11.36,MG,1614679636
Sheridan,44.8333,-106.9173,24.8,74,1,6.91,US,1614679483
Lorengau,-2.0226,147.2712,83.05,80,100,15.46,PG,1614679747
Ponta Delgada,37.7333,-25.6667,57.2,72,40,9.22,PT,1614679748
Tabuk,17.4189,121.4443,75.7,90,24,8.48,PH,1614679748
Beroroha,-21.6667,45.1667,90.66,44,99,4.85,MG,1614679748
Kaeo,-35.1,173.7833,66.0,87,27,3.0,NZ,1614679748
Praia,14.9215,-23.5087,69.8,68,0,18.41,CV,1614679749
Isa Khel,36.6702,68.8443,67.26,25,84,5.53,AF,1614679749
Baturaja,-4.1333,104.1667,84.02,80,94,1.23,ID,1614679462
Pontypridd,51.6021,-3.3421,42.01,89,0,3.0,GB,1614679749
Oussouye,12.485,-16.5469,73.4,56,0,11.5,SN,1614679749
Saint George,37.1041,-113.5841,37.4,22,1,3.44,US,1614679749
Progress,40.2851,-76.8314,25.0,47,3,14.0,US,1614679750
Khandyga,62.6667,135.6,-18.11,88,100,0.22,RU,1614679750
Isangel,-19.55,169.2667,77.85,83,83,9.69,VU,1614679750
Sterling,39.0062,-77.4286,32.0,43,1,9.22,US,1614679711
Cadillac,44.2519,-85.4012,1.4,78,75,5.53,US,1614679750
Agüimes,27.9054,-15.4461,68.0,64,40,13.8,ES,1614679751
Clyde River,70.4692,-68.5914,-13.0,77,90,11.5,CA,1614679751
Airai,-8.9266,125.4092,63.28,100,100,0.96,TL,1614679751
Sande,53.5049,8.0142,44.01,100,40,6.91,DE,1614679752
Bykivka,50.2929,27.9831,34.5,89,100,14.88,UA,1614679752
Avila,40.5833,-5.0,45.0,94,63,10.0,ES,1614679752
Gimli,50.6336,-96.9907,17.6,79,100,9.22,CA,1614679752
Salalah,17.0151,54.0924,84.2,54,0,8.05,OM,1614679738
Guarapari,-20.6667,-40.4975,73.4,94,40,2.3,BR,1614679752
Mwense,-10.3845,28.698,86.85,58,17,0.27,ZM,1614679752
Viedma,-40.8135,-62.9967,66.69,87,19,17.49,AR,1614679753
Klaksvík,62.2266,-6.589,44.6,93,90,1.14,FO,1614679753
Griffith,41.5284,-87.4237,19.4,79,1,3.74,US,1614679753
Lüderitz,-26.6481,15.1594,77.41,50,0,13.4,NA,1614679753
Uromi,6.7,6.3333,90.46,49,93,3.76,NG,1614679753
Paka,4.6374,103.4368,84.2,70,20,9.22,MY,1614679753
Macapá,0.0389,-51.0664,75.2,94,75,2.3,BR,1614679754
Northview,43.0456,-85.6006,17.01,73,1,4.07,US,1614679754
Linxia Chengguanzhen,35.6003,103.2064,41.97,30,100,4.63,CN,1614679754
Forsytheganj,52.6333,29.7333,37.63,84,98,15.52,BY,1614679754
Lima,-12.0432,-77.0282,71.01,94,40,3.44,PE,1614679468
Port Hedland,-20.3167,118.5667,86.0,66,40,10.36,AU,1614679682
San Andrés,12.5847,-81.7006,80.6,74,20,10.36,CO,1614679754
Portland,45.5234,-122.6762,43.0,81,1,0.45,US,1614679371
San Cristobal,7.7669,-72.225,61.81,86,44,2.04,VE,1614679754
Koslan,63.4564,48.8989,31.1,92,99,5.88,RU,1614679755
Dalbandin,28.8947,64.4101,82.56,13,0,10.67,PK,1614679755
Yangshan,28.7615,115.0287,47.84,77,93,4.36,CN,1614679755
Port Antonio,18.18,-76.4612,75.2,78,20,5.75,JM,1614679755
Birjand,32.8663,59.2211,60.8,31,40,18.41,IR,1614679756
Maroantsetra,-15.4333,49.7333,85.23,61,25,7.4,MG,1614679756
Gubkinskiy,64.434,76.5026,-2.96,89,100,21.03,RU,1614679756
Butte,39.6499,-121.5677,46.0,57,1,4.61,US,1614679756
Tuatapere,-46.1333,167.6833,57.99,93,10,1.01,NZ,1614679756
Tshikapa,-6.4167,20.8,86.95,70,58,1.79,CD,1614679757
Iqaluit,63.7506,-68.5145,5.0,85,90,2.3,CA,1614679757
Naze,28.3667,129.4833,60.8,72,75,17.27,JP,1614679757
West Bay,19.3667,-81.4167,78.01,92,4,1.99,KY,1614679757
Wagar,16.1525,36.2032,89.22,21,0,11.16,SD,1614679757
Katsuura,35.1333,140.3,52.0,76,75,28.77,JP,1614679753
Codrington,-38.2667,141.9667,55.54,61,46,9.64,AU,1614679758
Darhan,49.4867,105.9228,25.0,91,100,5.82,MN,1614679758
União,-4.5858,-42.8642,75.2,94,90,2.3,BR,1614679758
Katobu,-4.9408,122.5276,77.83,89,99,2.15,ID,1614679758
Aksu,41.1231,80.2644,48.72,45,20,0.51,CN,1614679513
Yangi Marg`ilon,40.4272,71.7189,53.6,35,100,2.3,UZ,1614679759
Taquarituba,-23.5331,-49.2444,64.47,95,93,6.17,BR,1614679759
Mayo,38.8876,-76.5119,33.01,47,1,20.71,US,1614679759
Pierre,44.3683,-100.351,32.0,69,1,3.44,US,1614679759
Pueblo,38.2545,-104.6091,30.99,68,1,5.75,US,1614679735
Riverton,40.5219,-111.9391,33.01,86,1,3.44,US,1614679760
Berlevåg,70.8578,29.0864,32.0,59,75,32.21,NO,1614679760
Meulaboh,4.1363,96.1285,83.35,80,88,5.99,ID,1614679635
Quatre Cocos,-20.2078,57.7625,87.01,69,75,13.8,MU,1614679760
Tiksi,71.6872,128.8694,-31.47,99,92,1.81,RU,1614679760
Taltal,-25.4,-70.4833,62.08,77,2,3.49,CL,1614679760
Takoradze,4.8845,-1.7554,83.88,74,74,7.11,GH,1614679760
Kutum,14.2,24.6667,77.99,15,9,8.28,SD,1614679761
Moss Vale,-34.55,150.3833,64.99,55,75,4.61,AU,1614679761
Byron Bay,-28.65,153.6167,77.0,73,90,14.97,AU,1614679761
Deyang,31.1302,104.382,62.01,54,99,3.22,CN,1614679761
Channarāyapatna,12.9044,76.3917,89.74,18,0,10.11,IN,1614679762
Dana Point,33.467,-117.6981,51.8,40,1,1.5,US,1614679762
Vangaindrano,-23.35,47.6,84.51,62,90,7.34,MG,1614679762
Goundam,16.4145,-3.6708,87.28,12,58,17.18,ML,1614679762
Awjilah,29.1081,21.2869,67.98,33,0,4.85,LY,1614679762
Manicoré,-5.8092,-61.3003,71.62,99,100,0.98,BR,1614679763
Sørland,67.667,12.6934,39.2,81,75,40.29,NO,1614679763
Namatanai,-3.6667,152.4333,79.95,81,94,5.12,PG,1614679763
Kalmunai,7.4167,81.8167,82.83,60,0,10.33,LK,1614679763
Vanimo,-2.6741,141.3028,81.36,80,92,11.79,PG,1614679763
Cham,47.1821,8.4636,46.99,81,0,1.39,CH,1614679763
Ambulu,-8.345,113.6058,82.4,80,92,2.82,ID,1614679764
Coquimbo,-29.9533,-71.3436,57.2,88,75,2.3,CL,1614679764
Lumphat,13.4878,106.9816,96.96,30,9,7.11,KH,1614679764
Māngrol,21.1167,70.1167,86.38,27,0,14.34,IN,1614679764
Ucluelet,48.9329,-125.5528,36.0,90,66,9.31,CA,1614679764
Vardø,70.3705,31.1107,26.6,86,40,31.07,NO,1614679765
Wanning,18.8003,110.3967,70.93,85,100,11.21,CN,1614679765
Maragogi,-9.0122,-35.2225,78.8,80,15,9.4,BR,1614679765
Nizhnevartovsk,60.9344,76.5531,-0.4,65,0,6.71,RU,1614679682
Ejura,7.3856,-1.3562,96.12,43,3,1.92,GH,1614679765
Aklavik,68.2191,-135.0107,-22.0,69,100,2.3,CA,1614679766
São João da Barra,-21.6403,-41.0511,75.2,94,0,2.3,BR,1614679766
Bubaque,11.2833,-15.8333,77.14,53,4,12.19,GW,1614679766
Salinas,36.6777,-121.6555,46.4,53,1,2.89,US,1614679725
Shypyntsi,48.3768,25.7466,46.4,53,0,13.42,UA,1614679766
Puerto Suárez,-18.95,-57.8,72.3,98,0,3.6,BO,1614679767
Coyhaique,-45.5752,-72.0662,46.0,94,74,0.87,CL,1614679767
Gérardmer,48.0735,6.8779,53.6,61,0,4.61,FR,1614679767
Saint-Pierre,-21.3393,55.4781,87.8,58,0,25.32,RE,1614679204
Makkah al Mukarramah,21.4267,39.8261,81.86,21,56,7.05,SA,1614679752
‘Āhuimanu,21.4447,-157.8378,73.4,88,90,18.41,US,1614679767
Batticaloa,7.7102,81.6924,82.65,56,8,8.86,LK,1614679767
Aswān,24.0934,32.907,75.18,20,0,10.27,EG,1614679768
Liusha,27.2098,108.59,44.73,84,100,4.56,CN,1614679768
Pyskowice,50.4,18.6333,44.01,81,0,5.75,PL,1614679768
Zaplavnoye,48.7048,45.0229,35.6,80,40,26.84,RU,1614679768
Kloulklubed,7.0419,134.2556,80.6,83,75,5.75,PW,1614679768
Los Llanos de Aridane,28.6585,-17.9182,66.2,68,40,5.75,ES,1614679768
Suez,29.9737,32.5263,63.55,40,0,7.78,EG,1614679638
São Mateus,-18.7161,-39.8589,74.16,91,99,1.28,BR,1614679769
Guilin,25.2819,110.2864,59.0,44,75,11.18,CN,1614679615
Clyde,41.3042,-82.9752,21.99,67,5,5.46,US,1614679769
Waipawa,-41.4122,175.5153,68.0,83,75,17.27,NZ,1614679769
Saint Paul Harbor,57.79,-152.4072,30.2,69,1,6.04,US,1614679769
Varadero,23.1536,-81.2514,69.8,94,20,4.61,CU,1614679671
Vryburg,-26.9566,24.7284,78.64,29,0,2.1,ZA,1614679525
Eyemouth,55.8713,-2.0901,35.01,89,27,5.93,GB,1614679770
Mount Isa,-20.7333,139.5,91.4,27,77,3.44,AU,1614679770
Colares,38.7992,-9.4469,59.0,88,75,3.44,PT,1614679770
Honiara,-9.4333,159.95,80.73,77,100,3.83,SB,1614679770
North Bend,43.4065,-124.2243,43.0,100,90,3.44,US,1614679507
Labuhan,-6.8844,112.2051,81.75,79,73,9.75,ID,1614679771
Hervey Bay,-25.2986,152.8535,80.01,72,91,3.0,AU,1614679771
Olafsvik,64.8945,-23.7142,36.77,96,100,9.08,IS,1614679771
Touros,-5.1989,-35.4608,75.2,94,40,4.61,BR,1614679771
Merrill,45.1805,-89.6835,14.0,62,90,3.44,US,1614679771
Brandon,27.9378,-82.2859,72.0,100,90,3.44,US,1614679709
Koshki,54.2091,50.4677,29.55,98,100,19.01,RU,1614679771
Faya,18.3851,42.4509,71.6,37,40,19.57,SA,1614679772
Lagoa,39.05,-27.9833,57.78,68,100,18.1,PT,1614679772
Santa Cruz de Barahona,18.2085,-71.1008,70.74,80,31,1.97,DO,1614679701
Fairview,40.8126,-73.999,24.8,33,1,14.97,US,1614679486
Saint Anthony,45.0205,-93.218,21.99,73,1,8.05,US,1614679587
Betong,5.7743,101.0723,85.59,56,75,0.27,TH,1614679512
Pingliang,35.5392,106.6861,45.45,53,100,9.66,CN,1614679772
Hambantota,6.1241,81.1185,91.4,40,20,8.05,LK,1614679772
Asău,46.4333,26.4,46.4,66,0,2.3,RO,1614679773
Pittsburg,38.028,-121.8847,50.0,57,1,4.61,US,1614679773
San Juan del Cesar,10.7711,-73.0031,67.46,87,58,6.04,CO,1614679773
Muslyumovo,55.3033,53.1947,22.17,96,100,18.88,RU,1614679773
Shawnee,39.05,-95.7669,30.0,80,1,5.55,US,1614679668
Berezovyy,51.6667,135.7,-6.41,78,1,6.96,RU,1614679774
Kavieng,-2.5744,150.7967,82.4,79,98,10.49,PG,1614679774
Chiredzi,-21.05,31.6667,73.72,73,96,5.3,ZW,1614679774
La Victoria,10.2184,-67.3302,71.6,83,40,1.14,VE,1614679774
Olinda,-8.0089,-34.8553,75.2,83,40,2.3,BR,1614679775
Yulara,-25.2406,130.9889,102.2,8,7,3.44,AU,1614679775
Villa Bruzual,9.3328,-69.1208,70.09,70,52,6.98,VE,1614679775
Nabire,-3.3667,135.4833,80.89,82,100,5.5,ID,1614679775
Krutikha,53.9599,81.2093,12.0,95,98,5.99,RU,1614679776
Tongchuanshi,35.0806,109.0897,48.81,45,99,4.81,CN,1614679501
Two Hills,53.7169,-111.7518,26.6,100,39,14.97,CA,1614679776
High Level,58.5169,-117.136,-7.6,84,90,4.92,CA,1614679776
Broome,42.2506,-75.833,14.0,72,90,17.27,US,1614679776
Acapulco de Juárez,16.8634,-99.8901,72.5,82,0,3.27,MX,1614679526
Bilma,18.6853,12.9164,83.39,9,38,12.59,NE,1614679777
Normal,40.5142,-88.9906,21.99,86,1,8.05,US,1614679777
Miandrivazo,-19.5167,45.4667,92.77,46,96,2.15,MG,1614679777
Puerto Nariño,-3.7703,-70.3831,75.2,100,0,4.61,CO,1614679777
Srednekolymsk,67.45,153.6833,-35.12,81,3,6.26,RU,1614679778
Cayenne,4.9333,-52.3333,73.4,100,90,2.86,GF,1614679778
Humaitá,-7.5061,-63.0208,72.25,98,100,1.14,BR,1614679778
Kadaya,50.9327,119.2911,-8.63,99,99,1.99,RU,1614679778
Karasburg,-28.0167,18.75,87.82,25,7,8.28,NA,1614679778
Ayan,56.45,138.1667,-8.81,77,100,10.76,RU,1614679779
Pyaozerskiy,65.8333,31.1667,25.57,73,0,14.12,RU,1614679779
Ribeira Brava,32.65,-17.0667,62.6,55,20,4.61,PT,1614679779
Palora,-1.7,-77.9333,65.48,93,100,2.53,EC,1614679779
Ascension,30.2169,-90.9001,57.2,94,90,9.22,US,1614679780
Ust'-Ordynskiy,52.805,104.7508,23.0,42,0,6.71,RU,1614679780
Great Yarmouth,52.6083,1.7305,43.0,100,90,9.22,GB,1614679780
Santa Isabel,-23.3156,-46.2214,70.0,100,75,10.36,BR,1614679780
Artesia,33.8658,-118.0831,51.8,35,1,3.44,US,1614679780
Sisophon,13.5859,102.9737,96.22,36,71,6.85,KH,1614679780
Khipro,25.8285,69.3772,93.11,4,0,2.57,PK,1614679781
Līsakovsk,52.5369,62.4936,7.74,93,25,12.91,KZ,1614679781
Tomatlán,19.9333,-105.25,63.66,73,0,2.95,MX,1614679781
Baoro,5.6667,15.9667,98.24,12,3,11.34,CF,1614679781
Hobyo,5.3505,48.5268,83.86,61,43,17.76,SO,1614679781
Vila do Maio,15.1333,-23.2167,69.8,68,0,18.41,CV,1614679781
Siniscola,40.5719,9.6922,59.0,77,40,9.22,IT,1614679782
Te Anau,-45.4167,167.7167,55.6,86,15,4.32,NZ,1614679782
Morgan City,29.6994,-91.2068,57.99,100,90,6.91,US,1614679782
Kahului,20.8947,-156.47,69.8,73,40,12.66,US,1614679694
Don Benito,38.9563,-5.8616,55.0,80,0,1.01,ES,1614679783
San José Iturbide,21.0,-100.3833,59.0,82,40,8.05,MX,1614679783
Shache,38.4167,77.2406,51.82,28,36,6.73,CN,1614679783
Qaqortoq,60.7167,-46.0333,35.6,20,0,20.71,GL,1614679783
Qasigiannguit,68.8193,-51.1922,14.0,37,20,10.36,GL,1614679783
Galveston,29.3669,-94.9669,53.01,87,90,23.02,US,1614679493
Fréjus,43.4329,6.7352,60.8,41,0,3.31,FR,1614679784
Gympie,-26.1898,152.665,72.0,94,92,1.86,AU,1614679784
Jiuquan,39.7432,98.5174,43.68,50,0,4.63,CN,1614679773
Sur,22.5667,59.5289,87.17,40,0,13.06,OM,1614679784
Buriti dos Lopes,-3.175,-41.8669,74.21,92,80,4.65,BR,1614679784
The Pas,53.8251,-101.2541,12.2,79,90,3.44,CA,1614679784
Campbellsville,37.3434,-85.3419,28.99,93,1,5.28,US,1614679784
Ayagoz,47.9714,80.4392,31.71,94,100,10.49,KZ,1614679785
Worthing,50.8145,-0.3713,42.8,93,40,14.97,GB,1614679729
Ilulissat,69.2167,-51.1,14.0,37,20,10.36,GL,1614679785
Vostok,46.4856,135.8833,-8.48,91,7,2.28,RU,1614679785
Jinchang,38.4953,102.1739,39.18,64,0,3.51,CN,1614679786
Saldanha,-33.0117,17.9442,66.2,82,0,5.75,ZA,1614679786
São Gabriel,-30.3364,-54.32,67.93,94,4,6.26,BR,1614679709
Sabha,27.0377,14.4283,69.15,25,0,12.1,LY,1614679786
Ketchikan,55.3422,-131.6461,37.4,93,90,21.85,US,1614679786
Sidi Ali,36.0998,0.4206,64.11,50,100,11.63,DZ,1614679786
Kazygurt,41.7589,69.3864,60.8,29,98,9.22,KZ,1614679787
Banjarmasin,-3.3244,114.591,89.6,62,40,5.75,ID,1614679787
Kamenka,51.3223,42.7678,34.0,88,100,17.58,RU,1614679787
Honningsvåg,70.9821,25.9704,32.86,70,100,25.19,NO,1614679787
Bodø,67.28,14.405,39.99,81,75,27.63,NO,1614679788
Lac du Bonnet,50.2536,-96.0612,25.0,100,100,11.99,CA,1614679788
Arroio Grande,-32.2375,-53.0869,69.93,93,36,6.04,BR,1614679788
Sangamner,19.5667,74.2167,93.69,12,0,3.91,IN,1614679579
Saint-François,46.4154,3.9054,59.0,66,0,4.61,FR,1614679788
Bonavista,48.6499,-53.1147,33.01,100,100,10.36,CA,1614679788
Kilindoni,-7.9139,39.6668,83.01,79,79,10.36,TZ,1614679789
Galle,6.0367,80.217,83.91,60,2,10.36,LK,1614679789
Japura,-0.3167,102.35,90.59,53,41,3.76,ID,1614679789
Maceió,-9.6658,-35.7353,75.2,94,75,4.61,BR,1614679790
Finnsnes,69.2296,17.9811,33.8,86,75,3.44,NO,1614679790
Covington,39.0837,-84.5086,25.0,63,1,9.22,US,1614679515
Coari,-4.085,-63.1414,71.13,97,100,0.87,BR,1614679790
Kozhva,65.1073,57.0459,17.69,96,100,8.05,RU,1614679790
Yanam,16.7333,82.2167,91.4,52,20,13.8,IN,1614679791
Mâncio Lima,-7.6142,-72.8958,71.08,97,100,1.97,BR,1614679791
Mercedes,-34.6515,-59.4307,70.0,99,0,4.45,AR,1614679791
Moundou,8.5667,16.0833,91.4,15,0,8.81,TD,1614679791
Mahon,39.8885,4.2658,57.2,82,40,14.97,ES,1614679791
Maracás,-13.4411,-40.4308,62.98,93,65,5.64,BR,1614679791
Kismayo,-0.3582,42.5454,84.29,61,68,16.67,SO,1614679792
Prieska,-29.6641,22.7474,86.41,24,0,10.71,ZA,1614679792
Papetoai,-17.4961,-149.8729,78.8,89,75,6.91,PF,1614679792
Moshenskoye,58.5102,34.5911,33.01,93,93,12.73,RU,1614679792
Casino,-28.8667,153.05,75.2,78,71,6.91,AU,1614679792
Aasiaat,68.7098,-52.8699,6.76,68,100,21.52,GL,1614679792
Kayunga,0.7025,32.8886,98.22,21,5,3.47,UG,1614679761
Kangaba,11.9333,-8.4167,93.34,8,12,12.48,ML,1614679792
Chāndūr Bāzār,21.2417,77.7456,99.05,8,0,12.53,IN,1614679792
Campoverde,-8.4753,-74.8058,71.64,98,100,1.23,PE,1614679793
Petrove,48.3247,33.2562,41.0,65,75,22.37,UA,1614679793
Humboldt,40.6665,-123.9178,39.99,100,1,8.05,US,1614679793
Nhulunbuy,-12.2333,136.7667,84.2,79,95,11.5,AU,1614679793
Soe,-9.8607,124.284,69.71,94,99,1.61,ID,1614679793
Makubetsu,45.3714,141.8211,21.2,93,75,26.46,JP,1614679794
Esmeraldas,-19.7625,-44.3139,68.0,83,40,9.22,BR,1614679794
Tanete,-3.9443,119.7848,82.22,72,61,4.74,ID,1614679794
Popondetta,-8.7537,148.2534,76.17,96,100,3.13,PG,1614679794
Daru,-9.0763,143.2092,80.69,85,48,11.74,PG,1614679794
Matagami,49.7502,-77.6328,-16.6,83,1,8.05,CA,1614679795
Alakurtti,66.9672,30.3491,28.99,64,27,8.99,RU,1614679795
Antalaha,-14.9003,50.2788,85.06,68,13,10.58,MG,1614679795
Morondava,-20.2833,44.2833,81.99,76,100,5.64,MG,1614679795
San Matías,-16.3667,-58.4,72.48,95,0,3.09,BO,1614679796
Nyahururu,0.0421,36.3673,74.97,33,0,15.32,KE,1614679796
Mocuba,-16.8392,36.9856,75.6,87,100,9.13,MZ,1614679796
Narsaq,60.9167,-46.05,35.6,20,0,20.71,GL,1614679796
Okhotsk,59.3833,143.3,-1.97,97,100,7.0,RU,1614679796
Smiltene,57.4244,25.9016,42.01,74,14,5.99,LV,1614679797
Lincoln,40.8,-96.667,32.0,80,1,3.44,US,1614679507
Vega de Alatorre,20.0333,-96.6333,71.47,94,84,19.04,MX,1614679797
Jablah,35.3614,35.9256,59.0,88,75,6.91,SY,1614679797
Tilichiki,60.4667,166.1,-15.16,85,46,5.77,RU,1614679797
City of San Pedro,14.35,121.0167,82.99,89,75,2.3,PH,1614679528
Orlik,52.5178,99.825,19.0,88,98,9.64,RU,1614679798
Novy Urengoy,66.0833,76.6333,-5.62,89,100,20.65,RU,1614679573
Huaraz,-9.5333,-77.5333,50.5,67,100,2.26,PE,1614679798
Kabwe,-14.4469,28.4464,70.66,77,97,7.16,ZM,1614679798
Grand Forks,47.9417,-97.4337,32.0,80,75,11.5,US,1614679798
Lakes Entrance,-37.8811,147.981,57.99,61,6,1.01,AU,1614679798
Minas,-34.3759,-55.2377,71.6,94,40,9.22,UY,1614679799
Flinders,-34.5833,150.8552,64.99,68,30,1.01,AU,1614679799
Tigzirt,36.8886,4.1198,64.4,55,87,3.33,DZ,1614679799
Dessie,11.1333,39.6333,60.64,72,86,6.6,ET,1614679799
Wuwei,37.9281,102.6414,43.18,28,92,4.09,CN,1614679799
Marsh Harbour,26.5412,-77.0636,73.58,82,67,10.25,BS,1614679800
Kampene,-3.6,26.6667,89.4,46,73,3.2,CD,1614679800
Berbera,10.4396,45.0143,82.13,62,35,10.2,SO,1614679637
Tegul'det,57.3064,88.1667,4.64,92,100,5.37,RU,1614679800
Skibbereen,51.55,-9.2667,42.8,87,90,12.66,IE,1614679801
Nioro,13.35,-15.75,85.32,13,25,11.97,GM,1614679801
