City,Lat,Lng,Max Temp,Humidity,Cloudiness,Wind Speed,Country,Date
Cherskiy,68.75,161.3,-25.38,84,36,5.79,RU,1614645793
Mataura,-46.1927,168.8643,73.99,69,97,1.01,NZ,1614645842
Bolobo,-2.1667,16.2333,79.38,71,100,4.18,CD,1614645842
Lompoc,34.6391,-120.4579,68.0,15,1,6.91,US,1614645673
Khonsa,27.0167,95.5667,61.21,54,71,3.49,IN,1614645842
Hermanus,-34.4187,19.2345,63.0,87,0,11.1,ZA,1614645788
Chokurdakh,70.6333,147.9167,-26.16,85,33,6.02,RU,1614645843
Busselton,-33.65,115.3333,68.0,81,100,4.0,AU,1614645843
Dingle,10.9995,122.6711,81.55,80,100,10.65,PH,1614645843
Nouadhibou,20.931,-17.0347,64.4,72,0,19.57,MR,1614645843
Weligama,5.9667,80.4167,72.7,85,0,7.87,LK,1614645843
Beira,-19.8436,34.8389,75.2,94,40,12.66,MZ,1614645844
Poronaysk,49.2167,143.1167,5.72,89,100,6.91,RU,1614645844
Thompson,55.7435,-97.8558,1.4,78,90,6.91,CA,1614645844
Vila Velha,-20.3297,-40.2925,77.0,83,40,4.61,BR,1614645844
Gayny,60.3071,54.3241,13.3,96,100,10.65,RU,1614645844
Oceanside,33.1959,-117.3795,68.0,20,1,11.5,US,1614645845
Kununurra,-15.7667,128.7333,89.6,51,100,6.91,AU,1614645845
Airai,-8.9266,125.4092,70.45,79,42,1.95,TL,1614645845
Labuhan,-6.8844,112.2051,80.82,80,1,4.41,ID,1614645845
Lebu,-37.6167,-73.65,61.29,86,100,19.53,CL,1614645612
Ushuaia,-54.8,-68.3,48.2,53,20,6.91,AR,1614645845
Galeana,24.8333,-100.0667,53.4,92,100,8.88,MX,1614645846
Puerto Ayora,-0.7393,-90.3518,79.0,92,57,5.01,EC,1614645846
Saint-Philippe,-21.3585,55.7679,75.2,57,0,6.91,RE,1614645846
Marawi,7.9986,124.2928,81.0,76,96,3.0,PH,1614645846
Port Blair,11.6667,92.75,71.6,88,0,2.3,IN,1614645847
Port Elizabeth,-33.918,25.5701,66.2,94,20,16.11,ZA,1614645847
Vaini,-21.2,-175.2,80.6,78,75,20.71,TO,1614645802
Butaritari,3.0707,172.7902,81.57,77,100,16.04,KI,1614645784
Hobart,-42.8794,147.3294,57.99,62,75,17.27,AU,1614645847
Poli,-3.3333,36.8,71.6,88,40,6.91,TZ,1614645847
Antsohihy,-14.8796,47.9875,73.36,96,98,2.95,MG,1614645848
Cape Town,-33.9258,18.4232,68.0,88,75,16.11,ZA,1614645848
Guerrero Negro,27.9769,-114.0611,67.84,23,0,8.32,MX,1614645848
Barbosa Ferraz,-24.03,-52.0117,68.81,94,23,2.64,BR,1614645848
Port Alfred,-33.5906,26.891,69.71,82,33,9.48,ZA,1614645849
Calvinia,-31.4707,19.776,69.48,54,0,6.11,ZA,1614645849
Eufaula,31.8913,-85.1455,64.4,63,90,3.44,US,1614645849
Fortuna,40.5982,-124.1573,55.0,74,93,4.0,US,1614645849
Hofn,64.2539,-15.2082,39.9,69,3,7.38,IS,1614645849
Avarua,-21.2078,-159.775,84.2,70,20,10.36,CK,1614645850
Fairbanks,64.8378,-147.7164,8.01,85,90,2.98,US,1614645781
Bethel,41.3712,-73.414,39.2,41,1,13.8,US,1614645850
Esperance,-33.8667,121.9,66.2,77,90,13.8,AU,1614645850
Rikitea,-23.1203,-134.9692,78.66,63,59,6.08,PF,1614645850
Gizo Government Station,-8.103,156.8419,84.25,74,100,13.87,SB,1614645851
Tasiilaq,65.6145,-37.6368,14.0,57,0,3.44,GL,1614645851
Dikson,73.5069,80.5464,-20.72,85,5,14.23,RU,1614645851
Palmer,42.1584,-72.3287,33.8,40,20,25.32,US,1614645851
Ponta do Sol,32.6667,-17.1,55.99,63,7,3.0,PT,1614645851
Albany,42.6001,-73.9662,30.99,60,67,1.99,US,1614645851
Barrow,71.2906,-156.7887,-20.2,69,40,9.22,US,1614645852
Punta Arenas,-53.15,-70.9167,48.2,57,0,10.36,CL,1614645595
Nouakchott,18.0858,-15.9785,64.4,27,0,11.5,MR,1614645852
Geraldton,-28.7667,114.6,73.4,73,94,8.05,AU,1614645852
Ribeira Grande,38.5167,-28.7,57.07,69,90,16.35,PT,1614645852
Lucea,18.451,-78.1736,80.01,78,40,9.22,JM,1614645852
Mar del Plata,-38.0023,-57.5575,71.6,83,0,5.75,AR,1614645642
Lakes Entrance,-37.8811,147.981,62.01,49,85,5.01,AU,1614645853
Huamachuco,-7.8,-78.0667,49.15,86,100,2.59,PE,1614645853
Srednekolymsk,67.45,153.6833,-29.88,83,68,9.71,RU,1614645853
Nikolskoye,59.7035,30.7861,37.4,75,0,8.95,RU,1614645811
Meadow Lake,34.8014,-106.5436,51.01,12,1,1.77,US,1614645854
Sakakah,29.9697,40.2064,51.8,50,0,4.61,SA,1614645808
Markova,48.6758,24.4138,26.92,93,0,4.88,UA,1614645854
San Fernando del Valle de Catamarca,-28.4696,-65.7852,70.0,99,100,1.01,AR,1614645854
Severo-Kuril'sk,50.6789,156.125,23.34,88,100,13.51,RU,1614645854
Bluff,-46.6,168.3333,73.99,69,100,1.01,NZ,1614645855
Sisimiut,66.9395,-53.6735,6.37,62,99,20.62,GL,1614645855
Koran,43.8103,18.5689,32.0,100,20,3.44,BA,1614645855
Saint Paul Harbor,57.79,-152.4072,37.4,65,90,17.27,US,1614645795
Tuatapere,-46.1333,167.6833,73.99,69,100,1.01,NZ,1614645856
Lufilufi,-13.8745,-171.5986,77.0,94,90,10.36,WS,1614645856
San Patricio,28.017,-97.5169,53.6,94,90,18.41,US,1614645856
Zomba,-15.386,35.3188,63.79,97,100,5.32,MW,1614645856
Christchurch,-43.5333,172.6333,78.8,41,40,19.57,NZ,1614645646
Morada Nova,-5.1067,-38.3725,75.0,90,100,5.75,BR,1614645857
Husavik,66.0449,-17.3389,41.0,52,40,10.36,IS,1614645857
Atuona,-9.8,-139.0333,79.99,74,13,11.54,PF,1614645857
Faanui,-16.4833,-151.75,83.41,68,100,4.83,PF,1614645857
Lata,40.1629,-8.3327,55.0,88,77,2.1,PT,1614645857
Kapaa,22.0752,-159.319,75.2,64,20,21.85,US,1614645858
Tiksi,71.6872,128.8694,-31.97,90,79,1.77,RU,1614645858
Kastamonu Province,41.5,33.6667,28.81,92,100,0.38,TR,1614645858
Sistranda,63.7256,8.834,39.2,87,75,11.5,NO,1614645858
Boffa,10.1667,-14.0333,73.29,76,0,0.11,GN,1614645858
Río Gallegos,-51.6226,-69.2181,48.2,49,0,5.75,AR,1614645858
Hong Kong,22.2855,114.1577,68.0,76,21,13.91,HK,1614645685
Adamovka,51.5223,59.9396,-2.43,92,63,10.31,RU,1614645859
Nizwá,22.9333,57.5333,61.11,70,0,1.32,OM,1614645859
Ilulissat,69.2167,-51.1,6.8,51,95,21.85,GL,1614645859
Cidreira,-30.1811,-50.2056,74.98,85,100,18.01,BR,1614645826
Atambua,-9.1061,124.8925,78.78,77,56,2.44,ID,1614645859
Nhamundá,-2.1861,-56.7131,73.33,95,100,2.42,BR,1614645860
Bashtanka,47.4072,32.4387,30.31,96,10,4.47,UA,1614645860
Jamestown,42.097,-79.2353,23.0,91,75,19.77,US,1614645816
Comodoro Rivadavia,-45.8667,-67.5,60.8,67,0,3.44,AR,1614645827
Lavrentiya,65.5833,-171.0,-15.23,83,99,14.27,RU,1614645860
Acajutla,13.5928,-89.8275,79.25,76,4,5.75,SV,1614645603
Cabedelo,-6.9811,-34.8339,75.2,100,75,3.44,BR,1614645860
Provideniya,64.3833,-173.3,-4.0,77,90,26.84,RU,1614645861
Tokur,53.1333,132.9,-18.98,87,99,5.32,RU,1614645861
Nemuro,43.3236,145.575,28.4,93,75,12.66,JP,1614645861
Torbay,47.6666,-52.7314,28.0,100,90,3.44,CA,1614645861
Vila Franca do Campo,37.7167,-25.4333,55.4,71,75,6.91,PT,1614645861
Hilo,19.7297,-155.09,80.6,54,75,13.8,US,1614645861
Dhidhdhoo,6.8833,73.1,83.03,61,0,9.33,MV,1614645862
Ōdachō-ōda,35.1833,132.5,42.8,87,75,10.36,JP,1614645862
Totness,5.8833,-56.3167,75.63,85,62,8.43,SR,1614645862
Port Washington,40.8257,-73.6982,42.01,56,0,7.0,US,1614645862
East London,-33.0153,27.9116,71.58,76,0,20.27,ZA,1614645863
Carnarvon,-24.8667,113.6333,77.0,78,75,10.36,AU,1614645863
Pangnirtung,66.1451,-65.7125,5.0,72,90,19.57,CA,1614645863
Nanortalik,60.1432,-45.2371,23.76,82,0,6.4,GL,1614645863
Chui,-33.6971,-53.4616,72.03,89,24,11.39,UY,1614645821
Pelym,61.0108,61.9978,0.97,93,100,9.13,RU,1614645864
Santo Antônio do Içá,-3.1022,-67.9397,74.39,97,100,1.3,BR,1614645864
Sur,22.5667,59.5289,70.52,60,0,5.55,OM,1614645864
Arrondissement du Havre,49.5833,0.3333,41.0,75,0,6.91,FR,1614645864
Saint Anthony,45.0205,-93.218,23.0,42,1,5.75,US,1614645793
Llaillay,-32.85,-70.9667,73.0,94,90,4.61,CL,1614645864
San Quintín,30.4833,-115.95,62.06,44,0,10.47,MX,1614645864
Kavieng,-2.5744,150.7967,83.41,78,83,11.52,PG,1614645865
Carutapera,-1.195,-46.02,75.45,92,100,3.6,BR,1614645865
Magway,20.15,94.9167,72.0,47,1,5.44,MM,1614645865
Kaitangata,-46.2817,169.8464,66.99,82,95,4.0,NZ,1614645865
Nandu,22.8525,110.8233,57.4,63,1,7.2,CN,1614645866
Nuuk,64.1835,-51.7216,12.2,73,92,24.16,GL,1614645619
Washougal,45.5826,-122.3534,57.99,51,75,3.44,US,1614645866
Koumra,8.9126,17.5539,79.48,17,0,5.17,TD,1614645866
Āmta,22.58,88.0083,71.6,100,0,1.1,IN,1614645866
Arraial do Cabo,-22.9661,-42.0278,77.0,83,0,14.97,BR,1614645791
Bathsheba,13.2167,-59.5167,77.0,61,20,16.11,BB,1614645866
Namie,37.4833,141.0,60.01,78,100,1.01,JP,1614645867
Presidencia Roque Sáenz Peña,-26.7852,-60.4388,80.78,41,0,5.37,AR,1614645867
Racale,39.9631,18.0938,48.0,100,0,8.05,IT,1614645867
Upernavik,72.7868,-56.1549,-0.94,75,100,10.83,GL,1614645867
Moree,-29.4667,149.85,86.0,39,0,12.66,AU,1614645867
kimparana,12.8347,-4.9244,78.94,16,100,7.31,ML,1614645868
Cayenne,4.9333,-52.3333,75.2,94,90,5.75,GF,1614645735
Castro,-24.7911,-50.0119,62.94,96,100,5.37,BR,1614645773
Severodvinsk,64.5635,39.8302,30.2,86,20,8.95,RU,1614645868
Iqaluit,63.7506,-68.5145,5.0,78,90,11.5,CA,1614645868
Ivanivka,46.7208,34.553,31.28,96,0,5.5,UA,1614645868
Itacaré,-14.2775,-38.9967,75.0,86,15,8.03,BR,1614645868
Ibiapina,-3.9233,-40.8894,66.24,100,100,3.27,BR,1614645869
Kumul,42.8,93.45,30.99,84,0,2.39,CN,1614645869
Koygorodok,60.445,50.9968,27.37,98,100,11.14,RU,1614645869
Deputatsky,69.3,139.9,-27.27,87,95,0.45,RU,1614645869
Bambous Virieux,-20.3428,57.7575,78.8,73,20,5.75,MU,1614645870
Dok Kham Tai,19.1624,99.9934,70.0,52,0,1.92,TH,1614645870
Glenwood Springs,39.5505,-107.3248,44.6,58,1,9.22,US,1614645870
Meulaboh,4.1363,96.1285,77.65,84,1,3.27,ID,1614645794
Soyo,-6.1349,12.3689,79.79,84,100,8.28,AO,1614645870
Codrington,-38.2667,141.9667,58.14,52,100,11.7,AU,1614645870
Allada,6.6655,2.1514,84.2,89,40,12.66,BJ,1614645870
Camacha,33.0833,-16.3333,55.4,71,20,5.75,PT,1614645871
Pochutla,15.7432,-96.4661,87.8,45,1,16.11,MX,1614645871
Mitzic,0.7821,11.549,70.88,97,100,3.11,GA,1614645871
Solnechnyy,50.7214,136.6319,-1.16,75,21,2.53,RU,1614645871
Gaza,31.5,34.4667,54.0,100,68,8.03,PS,1614645871
Saskylakh,71.9167,114.0833,-38.78,80,96,2.39,RU,1614645834
Grand Gaube,-20.0064,57.6608,75.99,78,0,1.99,MU,1614645872
Khatanga,71.9667,102.5,-31.67,84,99,4.18,RU,1614645872
Aklavik,68.2191,-135.0107,-22.0,69,99,8.05,CA,1614645872
Hithadhoo,-0.6,73.0833,81.82,68,73,9.06,MV,1614645872
Eyl,7.9803,49.8164,72.48,84,0,12.91,SO,1614645873
Ponta Delgada,37.7333,-25.6667,55.4,71,75,6.91,PT,1614645873
Emerald,-23.5333,148.1667,90.0,48,100,9.22,AU,1614645873
Verkhnyaya Salda,58.0456,60.5533,-2.65,92,0,6.69,RU,1614645873
Yaan,7.3833,8.5667,78.62,29,98,7.34,NG,1614645873
San Cristobal,7.7669,-72.225,78.8,69,40,2.3,VE,1614645874
Oliveira do Hospital,40.3618,-7.8601,53.01,88,53,1.48,PT,1614645678
Astoria,46.1879,-123.8313,51.01,81,75,11.5,US,1614645603
Rio Grande,-32.035,-52.0986,75.0,88,0,16.28,BR,1614645658
Sarmanovo,55.2553,52.5891,5.0,85,0,11.18,RU,1614645874
Bose,45.4612,8.0137,45.0,42,0,1.99,IT,1614645874
Maniitsoq,65.4167,-52.9,9.37,56,33,15.9,GL,1614645874
Sarkand,45.41,79.9186,33.53,77,64,7.34,KZ,1614645677
Bilma,18.6853,12.9164,67.64,22,76,4.68,NE,1614645875
Kabalo,-6.05,26.9167,70.88,89,76,2.57,CD,1614645875
Dillingen,49.35,6.7333,39.99,80,0,6.71,DE,1614645875
Canutama,-6.5339,-64.3831,73.09,98,99,3.11,BR,1614645875
Vanavara,60.34,102.2797,-29.99,84,86,4.36,RU,1614645876
Makakilo City,21.3469,-158.0858,80.6,44,1,14.97,US,1614645876
Eséka,3.65,10.7667,73.53,98,28,1.25,CM,1614645876
Long Xuyen,10.3833,105.4167,78.8,89,75,4.61,VN,1614645703
New Norfolk,-42.7826,147.0587,57.99,57,95,1.99,AU,1614645876
Preston,53.7667,-2.7167,37.0,89,0,5.64,GB,1614645716
Freeport,40.6576,-73.5832,42.8,42,1,14.97,US,1614645661
Bredasdorp,-34.5322,20.0403,64.4,94,0,5.75,ZA,1614645872
Yellowknife,62.456,-114.3525,-2.0,46,75,9.22,CA,1614645763
Trelew,-43.249,-65.3051,61.09,75,100,27.0,AR,1614645877
Saldanha,-33.0117,17.9442,62.6,88,0,6.91,ZA,1614645877
Sibu,2.3,111.8167,75.2,94,20,3.44,MY,1614645877
North Platte,41.1239,-100.7654,50.0,29,1,8.05,US,1614645877
Kodinsk,58.6881,99.1844,-27.92,83,0,3.56,RU,1614645877
Tual,-5.6667,132.75,83.57,75,100,11.27,ID,1614645878
Pontes e Lacerda,-15.2261,-59.3353,77.05,72,31,2.39,BR,1614645878
Saint George,37.1041,-113.5841,60.8,10,1,9.22,US,1614645662
Yar-Sale,66.8333,70.8333,-3.26,96,100,19.62,RU,1614645778
Topeka,39.0483,-95.678,51.8,29,1,5.75,US,1614645879
Gambiran,-6.7988,111.4951,77.65,87,96,1.99,ID,1614645879
George Town,5.4112,100.3354,82.0,94,20,3.06,MY,1614645879
Ust-Maya,60.4167,134.5333,-17.01,94,100,5.14,RU,1614645879
Morondava,-20.2833,44.2833,76.33,88,100,13.04,MG,1614645879
Mount Isa,-20.7333,139.5,93.2,33,0,8.05,AU,1614645879
Mount Gambier,-37.8333,140.7667,60.8,48,90,14.97,AU,1614645732
Novobirilyussy,56.9514,90.6661,-11.61,88,100,7.56,RU,1614645879
Nome,64.5011,-165.4064,3.2,55,90,10.36,US,1614645880
Channel-Port aux Basques,47.5702,-59.1367,31.12,97,100,35.9,CA,1614645880
Lorengau,-2.0226,147.2712,83.64,74,100,11.68,PG,1614645880
Port Hardy,50.6996,-127.4199,44.6,81,75,2.3,CA,1614645880
Flinders,-34.5833,150.8552,64.0,79,95,1.99,AU,1614645880
Kosh-Agach,50.0,88.6667,3.96,84,100,1.03,RU,1614645880
Novoagansk,61.9449,76.6625,-18.81,88,38,7.74,RU,1614645880
Eureka,40.8021,-124.1637,51.01,78,100,7.0,US,1614645813
Tuktoyaktuk,69.4541,-133.0374,-25.6,75,75,12.66,CA,1614645827
Cabra,37.4725,-4.4421,53.01,76,0,2.84,ES,1614645881
Nelson Bay,-32.7167,152.15,77.0,65,40,12.66,AU,1614645881
Yamada,39.4667,141.95,55.71,82,100,21.94,JP,1614645881
Monte Escobedo,22.3,-103.5833,62.17,27,65,8.03,MX,1614645882
Adrar,20.5022,-10.0711,62.37,30,65,11.48,MR,1614645882
Province of Trapani,37.8333,12.6667,57.0,93,0,5.75,IT,1614645882
Puerto del Rosario,28.5004,-13.8627,60.8,72,0,8.05,ES,1614645882
Bonoua,5.2741,-3.595,82.4,94,20,8.05,CI,1614645882
Huilong,31.8111,121.655,44.01,86,0,15.39,CN,1614645882
Mátranovák,48.0381,19.9826,35.65,86,0,2.28,HU,1614645883
Sirpur,19.4833,79.6,69.73,31,0,0.2,IN,1614645883
Souillac,-20.5167,57.5167,78.8,73,20,5.75,MU,1614645883
Chiredzi,-21.05,31.6667,66.29,92,100,4.5,ZW,1614645883
Mahébourg,-20.4081,57.7,78.8,73,20,5.75,MU,1614645884
Talnakh,69.4865,88.3972,-31.52,83,0,8.7,RU,1614645884
Vikhorevka,56.1201,101.1636,-20.0,76,40,2.24,RU,1614645884
Floresta,-8.6011,-38.5686,75.97,77,59,16.75,BR,1614645884
Bantry,51.6833,-9.45,39.2,93,40,6.91,IE,1614645884
Bambanglipuro,-7.95,110.2833,81.28,78,86,3.69,ID,1614645885
Fasa,28.9383,53.6482,46.4,100,40,1.92,IR,1614645885
Vardø,70.3705,31.1107,26.6,93,90,23.02,NO,1614645885
Portland,45.5234,-122.6762,59.0,51,75,3.44,US,1614645516
Plouzané,48.3833,-4.6167,48.2,81,0,8.05,FR,1614645886
Grindavik,63.8424,-22.4338,39.2,70,90,4.61,IS,1614645886
Cabo San Lucas,22.8909,-109.9124,75.0,60,40,6.91,MX,1614645658
Isangel,-19.55,169.2667,87.8,62,40,9.22,VU,1614645886
Tibati,6.4667,12.6333,68.23,25,11,3.94,CM,1614645886
Abéché,13.8292,20.8324,73.13,18,13,21.07,TD,1614645887
Port Keats,-14.25,129.55,85.48,72,35,9.98,AU,1614645887
Sambava,-14.2667,50.1667,75.31,86,76,7.05,MG,1614645750
Sittwe,20.15,92.9,68.85,88,4,6.4,MM,1614645887
Burnie,-41.0667,145.9167,57.88,45,2,10.83,AU,1614645802
Mykhaylivka,47.2724,35.2224,30.65,95,0,5.93,UA,1614645887
Tura,25.5198,90.2201,64.74,29,0,0.89,IN,1614645888
Mossamedes,-15.1961,12.1522,72.95,76,1,8.34,AO,1614645888
São Sepé,-30.1606,-53.5653,75.2,88,0,3.44,BR,1614645888
Qaanaaq,77.484,-69.3632,-18.99,75,7,2.71,GL,1614645888
Mandalī,33.7499,45.5541,55.83,50,0,7.9,IQ,1614645888
Sitka,57.0531,-135.33,37.4,75,90,19.57,US,1614645789
Paka,4.6374,103.4368,75.2,94,40,1.14,MY,1614645889
Biak,-0.9131,122.8766,81.52,71,100,2.13,ID,1614645889
Arrondissement de Saint-Denis,48.9167,2.3333,44.01,87,0,4.61,FR,1614645889
Tabou,4.423,-7.3528,78.51,87,35,4.52,CI,1614645890
Goedereede,51.8175,3.9806,42.01,91,0,10.76,NL,1614645890
Leshukonskoye,64.8989,45.7622,28.67,96,100,7.58,RU,1614645890
La Huaca,-4.9117,-80.96,78.35,66,99,9.08,PE,1614645890
Chintamani,13.4,78.0667,66.2,59,0,3.44,IN,1614645890
Samarai,-10.6167,150.6667,83.61,75,100,11.16,PG,1614645891
Padang,-0.9492,100.3543,78.8,89,75,3.44,ID,1614645891
Leningradskiy,69.3833,178.4167,-16.76,86,100,4.59,RU,1614645891
Gävle,60.6745,17.1417,39.99,63,30,5.99,SE,1614645891
Kutum,14.2,24.6667,55.58,18,0,8.19,SD,1614645891
Lac du Bonnet,50.2536,-96.0612,12.99,100,100,5.99,CA,1614645892
Maceió,-9.6658,-35.7353,73.4,100,75,3.44,BR,1614645761
Yangi Marg`ilon,40.4272,71.7189,35.6,60,100,4.61,UZ,1614645892
Wattegama,6.7989,81.4808,66.2,100,1,1.14,LK,1614645892
Naryan-Mar,67.6713,53.087,24.42,98,100,10.54,RU,1614645892
Buin,-33.7333,-70.75,75.99,60,75,8.05,CL,1614645893
Kenai,60.5544,-151.2583,21.2,86,90,2.8,US,1614645893
Port Lincoln,-34.7333,135.8667,62.53,66,100,20.94,AU,1614645893
Gumia,23.7833,85.8167,69.55,28,0,3.18,IN,1614645893
Bossier City,32.516,-93.7321,46.4,93,90,11.5,US,1614645893
Toamasina,-18.1667,49.3833,75.2,94,40,4.61,MG,1614645894
Mouzourás,35.5333,24.15,48.2,87,40,5.75,GR,1614645894
Sundsvall,62.3913,17.3063,37.4,75,0,9.22,SE,1614645894
Finschhafen,-6.6024,147.8681,85.98,71,100,11.74,PG,1614645894
Pedro Juan Caballero,-22.5472,-55.7333,68.0,95,0,7.83,PY,1614645894
Namasigüe,13.2047,-87.1389,89.6,55,75,17.27,HN,1614645895
São Gabriel,-30.3364,-54.32,74.41,75,0,9.46,BR,1614645895
Olafsvik,64.8945,-23.7142,39.69,76,100,10.22,IS,1614645896
Dakar,14.6937,-17.4441,64.4,82,0,9.22,SN,1614645865
Prince Rupert,54.3161,-130.3201,41.0,70,90,8.05,CA,1614645896
Phan Thiet,10.9333,108.1,79.52,71,14,7.27,VN,1614645896
Anking,30.5092,117.0506,44.15,76,81,11.27,CN,1614645896
Constitución,-35.3333,-72.4167,60.19,87,0,4.7,CL,1614645897
Ko Samui,9.5357,99.9357,81.82,70,92,9.8,TH,1614645897
Quryq,43.2,51.65,33.48,90,95,1.79,KZ,1614645897
Xihe,31.6864,113.4659,43.12,67,0,2.86,CN,1614645897
Ilo,-17.6394,-71.3375,71.8,82,8,1.28,PE,1614645897
Yaypan,40.3758,70.8156,41.56,45,100,2.86,UZ,1614645898
Goderich,43.7501,-81.7165,19.4,53,100,24.16,CA,1614645715
Trelleborg,55.3751,13.1569,37.4,100,90,9.22,SE,1614645898
Magdagachi,53.45,125.8,-13.76,85,0,1.36,RU,1614645898
Kyra,49.5776,111.9753,-0.89,84,26,2.93,RU,1614645898
Abu Samrah,35.3029,37.1841,46.56,86,0,1.12,SY,1614645899
Lokosovo,61.1333,74.8167,-17.57,87,0,6.69,RU,1614645899
Arlit,18.7369,7.3853,78.19,17,100,8.37,NE,1614645899
Bom Jesus da Lapa,-13.255,-43.4181,72.93,77,100,5.03,BR,1614645797
Belaya Gora,68.5333,146.4167,-30.64,83,89,3.11,RU,1614645899
Marystown,47.1666,-55.1483,31.42,87,100,14.16,CA,1614645849
Tam Ky,15.5667,108.4833,77.0,94,75,6.91,VN,1614645900
Bairiki Village,1.3292,172.9752,84.2,74,40,10.36,KI,1614645820
Uyuni,-20.4597,-66.825,54.46,57,0,22.24,BO,1614645900
Key Biscayne,25.6937,-80.1628,77.0,78,20,10.36,US,1614645900
São Filipe,14.8961,-24.4956,67.44,76,3,8.28,CV,1614645901
São João da Barra,-21.6403,-41.0511,76.17,88,19,9.89,BR,1614645901
Amoy,24.4798,118.0819,62.6,77,90,13.42,CN,1614645901
Challapata,-18.9,-66.7667,49.21,68,100,12.39,BO,1614645901
Boussé,12.6606,-1.8922,79.03,16,33,11.25,BF,1614645903
Jaqué,7.5175,-78.1703,78.69,80,56,4.79,PA,1614645903
Middelburg,-25.7751,29.4648,52.5,91,1,7.36,ZA,1614645904
Laguna,38.421,-121.4238,68.0,21,1,2.71,US,1614645904
Iralaya,15.0,-83.2333,77.0,94,75,16.11,HN,1614645904
Bengkulu,-3.8004,102.2655,78.93,79,100,3.38,ID,1614645904
Te Anau,-45.4167,167.7167,62.11,89,100,3.6,NZ,1614645904
Pathein,16.7833,94.7333,72.28,84,0,5.91,MM,1614645904
Telchac Pueblo,21.2,-89.2667,87.8,45,20,18.41,MX,1614645904
Jos,9.9167,8.9,68.14,21,24,7.18,NG,1614645609
Gera,50.8803,12.0819,35.01,93,0,1.95,DE,1614645609
Coquimbo,-29.9533,-71.3436,60.8,82,0,8.05,CL,1614645780
Nong Han,17.3608,103.1053,78.01,78,0,8.59,TH,1614645905
Maţāy,28.419,30.7792,50.9,75,0,9.95,EG,1614645905
Karratha,-20.7377,116.8463,74.97,68,100,22.95,AU,1614645905
Katsuura,35.1333,140.3,64.0,88,75,26.46,JP,1614645906
Colares,38.7992,-9.4469,55.0,81,78,5.99,PT,1614645906
Ushtobe,45.2514,77.9838,34.09,79,100,3.13,KZ,1614645906
Usinsk,65.9939,57.5281,12.81,95,100,21.56,RU,1614645906
Palāsbāri,26.1361,91.5486,59.0,88,75,5.46,IN,1614645906
Oranjemund,-28.55,16.4333,65.75,78,0,3.0,NA,1614645829
Antofagasta,-23.65,-70.4,69.8,73,0,6.91,CL,1614645725
Tessalit,20.1986,1.0114,72.72,15,60,6.49,ML,1614645907
Kachkanar,58.7,59.4948,3.76,93,100,8.1,RU,1614645850
Ýpsonas,34.6884,32.9574,57.2,77,75,5.75,CY,1614645907
Springdale,36.1867,-94.1288,51.8,28,1,5.75,US,1614645907
Mayumba,-3.432,10.6554,79.9,86,100,9.73,GA,1614645908
Lahān,26.7296,86.4951,62.71,32,0,2.57,NP,1614645908
Domodossola,46.1165,8.2931,43.0,52,0,3.0,IT,1614645908
Yulara,-25.2406,130.9889,91.4,14,0,10.58,AU,1614645908
Darhan,49.4867,105.9228,10.99,88,100,6.73,MN,1614645908
Lamu,-2.2717,40.902,75.97,89,45,9.44,KE,1614645908
Praia,14.9215,-23.5087,66.2,72,20,13.8,CV,1614645909
Erzin,36.9559,36.2,48.99,41,0,11.99,TR,1614645909
Ixtapa,20.7,-105.2,75.2,78,1,10.36,MX,1614645771
Akureyri,65.6835,-18.0878,41.0,52,40,10.36,IS,1614645651
Pevek,69.7008,170.3133,-23.26,86,0,1.77,RU,1614645777
Ukiah,39.1502,-123.2078,60.8,29,1,8.05,US,1614645909
Rosetown,51.5501,-108.0014,37.4,75,100,13.8,CA,1614645909
Manakara,-22.1333,48.0167,75.47,85,65,2.55,MG,1614645910
Lingyuan,41.24,119.4011,25.7,78,0,1.34,CN,1614645910
Ahipara,-35.1667,173.1667,73.38,73,12,11.27,NZ,1614645910
Morros,-9.4467,-46.3003,71.74,91,100,2.51,BR,1614645910
Omsukchan,62.5333,155.8,-20.54,81,100,3.87,RU,1614645910
Naze,28.3667,129.4833,62.6,88,75,14.97,JP,1614645911
Ballina,-28.8667,153.5667,84.2,61,0,4.61,AU,1614645911
Port Shepstone,-30.7414,30.455,70.36,81,0,16.35,ZA,1614645911
Kuching,1.55,110.3333,80.6,94,20,3.44,MY,1614645910
La Mira,18.035,-102.3266,72.37,82,0,2.44,MX,1614645911
Westport,41.1415,-73.3579,39.2,41,1,18.41,US,1614645912
Half Moon Bay,37.4636,-122.4286,62.6,36,1,9.22,US,1614645912
Bubaque,11.2833,-15.8333,77.29,65,0,17.72,GW,1614645912
Udachny,66.4167,112.4,-40.2,78,22,2.28,RU,1614645912
Grafton,42.207,-71.6856,34.0,43,1,21.85,US,1614645912
Disna,55.568,28.1971,35.8,88,100,13.29,BY,1614645913
Strathmore,51.0501,-113.3852,42.8,52,100,14.97,CA,1614645913
Bud,39.447,-86.1758,35.01,65,0,7.67,US,1614645913
Mackay,-21.15,149.2,84.2,74,40,17.27,AU,1614645913
Medina,24.4686,39.6142,60.8,17,0,3.44,SA,1614645859
Ubari,26.5921,12.7805,52.3,43,0,5.55,LY,1614645914
Kuruman,-27.4524,23.4325,59.0,81,0,3.22,ZA,1614645914
Homer,59.6425,-151.5483,24.8,74,90,9.22,US,1614645915
Visnagar,23.7,72.55,60.8,72,0,4.83,IN,1614645915
Bereda,43.2686,-7.5406,48.0,100,99,5.99,ES,1614645915
Nola,40.922,14.5329,46.4,57,0,5.75,IT,1614645915
Klaksvík,62.2266,-6.589,44.6,100,75,10.36,FO,1614645799
Marathon,44.9,-89.7668,19.4,45,1,10.36,US,1614645916
Alta Floresta,-9.8756,-56.0861,69.58,99,92,4.72,BR,1614645916
Galesburg,40.9478,-90.3712,30.0,74,1,4.61,US,1614645916
Jieshi,22.8134,115.8257,66.0,68,89,3.0,CN,1614645917
Itoman,26.1247,127.6694,66.2,82,75,25.32,JP,1614645917
Kruisfontein,-34.0033,24.7314,70.0,89,100,3.0,ZA,1614645917
Clyde River,70.4692,-68.5914,-14.8,76,75,6.91,CA,1614645917
Port Augusta,-32.5,137.7667,73.4,49,98,10.36,AU,1614645917
Lagoa,39.05,-27.9833,56.35,64,3,11.27,PT,1614645918
Mīnāb,27.1467,57.0801,64.4,59,20,6.91,IR,1614645918
Villarrica,-25.75,-56.4333,76.39,71,0,4.76,PY,1614645918
Caravelas,-17.7125,-39.2481,77.0,84,3,7.65,BR,1614645837
Dvorichna,49.8496,37.6857,32.27,92,100,11.79,UA,1614645918
Taltal,-25.4,-70.4833,65.77,77,0,4.76,CL,1614645918
Margate,51.3813,1.3862,42.01,96,0,10.4,GB,1614645918
Mateare,12.2351,-86.4281,82.4,61,40,11.5,NI,1614645919
Verkhnyaya Toyma,62.2349,44.9985,27.19,95,92,5.61,RU,1614645919
Olutanga,7.3106,122.8464,81.52,76,0,5.66,PH,1614645919
Tshane,-24.0196,21.8684,65.41,59,0,8.93,BW,1614645919
Mogadishu,2.0371,45.3438,76.93,82,100,19.17,SO,1614645920
Pokosnoye,55.5258,101.0536,-2.69,92,100,5.3,RU,1614645920
Nacala,-14.5428,40.6728,73.98,93,100,7.09,MZ,1614645920
Broken Hill,-31.95,141.4333,66.2,42,0,16.11,AU,1614645844
Paamiut,61.994,-49.6678,17.24,43,0,6.24,GL,1614645920
Mezen',65.8522,44.24,22.68,93,38,7.05,RU,1614645920
Madridejos,39.4682,-3.532,46.0,91,100,10.0,ES,1614645920
Chapais,49.7834,-74.8492,-9.4,70,90,20.71,CA,1614645921
Salinópolis,-0.6136,-47.3561,78.3,87,100,9.37,BR,1614645921
Ekhabi,53.5102,142.9671,-5.69,82,0,11.34,RU,1614645921
Stranda,62.3096,6.9358,39.99,95,100,1.01,NO,1614645921
Bay Roberts,47.5999,-53.2648,30.99,90,100,3.0,CA,1614645921
Sioux Lookout,50.1001,-91.917,5.0,36,75,6.91,CA,1614645735
Nālūt,30.3333,10.85,52.83,41,0,13.13,LY,1614645922
Shaowu,27.3409,117.4831,52.45,85,98,3.65,CN,1614645922
Namatanai,-3.6667,152.4333,85.24,68,57,8.25,PG,1614645922
Pedersore,63.65,22.6833,36.0,75,0,8.05,FI,1614645922
Alpena,45.0617,-83.4327,15.01,52,40,10.36,US,1614645923
Cairns,-16.9167,145.7667,77.0,83,90,4.61,AU,1614645923
Fort Nelson,58.8053,-122.7002,-0.4,65,40,3.44,CA,1614645869
Kupang,-10.1667,123.5833,80.6,100,40,1.14,ID,1614645923
Vao,-22.6667,167.4833,77.74,72,83,13.22,NC,1614645923
Niono,14.2526,-5.993,79.12,11,100,10.67,ML,1614645924
Great Yarmouth,52.6083,1.7305,41.0,93,90,8.05,GB,1614645924
Pyinmana,19.7333,96.2167,69.33,32,0,2.55,MM,1614645924
Turukhansk,65.8167,87.9833,-31.05,79,0,8.34,RU,1614645924
Chhatarpur,24.9,79.6,59.45,21,0,3.15,IN,1614645925
Natal,-5.795,-35.2094,77.0,94,75,3.44,BR,1614645925
Touho,-20.7833,165.2333,80.87,72,100,12.37,NC,1614645925
Mehamn,71.0357,27.8492,28.9,92,100,29.77,NO,1614645925
Cap-aux-Meules,47.3821,-61.8597,28.4,100,100,27.63,CA,1614645842
Yantai,37.5333,121.4,33.76,81,0,13.87,CN,1614645925
Katobu,-4.9408,122.5276,83.93,70,100,0.78,ID,1614645926
Narsaq,60.9167,-46.05,21.2,53,0,3.44,GL,1614645926
At-Bashi,41.1702,75.8106,11.03,66,82,0.36,KG,1614645926
Pemba,-12.974,40.5178,75.2,94,75,6.91,MZ,1614645926
Luau,-10.7073,22.2247,62.04,98,93,5.06,AO,1614645927
Paracuru,-3.41,-39.0306,82.0,74,100,15.99,BR,1614645927
Cravo Norte,6.3017,-70.2041,82.92,32,82,7.02,CO,1614645927
Koło,52.2002,18.6387,37.0,95,0,3.0,PL,1614645927
Porto Nacional,-10.7081,-48.4172,73.4,100,90,3.44,BR,1614645928
Myitkyina,25.3833,97.4,68.13,60,89,1.74,MM,1614645926
Touros,-5.1989,-35.4608,75.2,100,75,5.75,BR,1614645928
Kavaratti,10.5669,72.642,81.28,72,0,6.06,IN,1614645928
Taguatinga,-12.3857,-46.5711,71.74,88,100,3.69,BR,1614645928
Atar,20.5169,-13.0499,62.4,32,0,11.01,MR,1614645929
Philadelphia,39.9523,-75.1638,44.01,42,1,16.11,US,1614645722
Honiara,-9.4333,159.95,86.58,67,98,7.14,SB,1614645929
Zhangye,38.9342,100.4517,31.1,81,22,2.73,CN,1614645917
Puerto Maldonado,-12.6,-69.1833,77.41,78,100,1.25,PE,1614645929
Gīdolē,5.65,37.3667,65.66,53,60,7.76,ET,1614645930
Terra Santa,-2.1042,-56.4869,72.5,97,100,1.16,BR,1614645930
Umluj,25.0213,37.2685,68.36,49,0,10.04,SA,1614645930
Mafra,-26.1114,-49.8053,61.0,96,100,4.09,BR,1614645930
Ambilobe,-13.2,49.05,73.36,93,32,1.16,MG,1614645931
Wuzhou,23.4833,111.3167,55.17,67,21,5.68,CN,1614645679
Shimoda,34.6667,138.95,64.4,88,75,21.85,JP,1614645931
Yerbogachën,61.2767,108.0108,-27.17,85,86,4.99,RU,1614645931
Shingū,33.7333,135.9833,62.6,100,75,19.57,JP,1614645931
Jiangyou,31.7667,104.7167,48.83,56,59,2.82,CN,1614645932
Kwinana,-32.25,115.7667,73.99,73,0,12.66,AU,1614645932
Zavyalovo,54.5053,82.4484,8.01,84,75,6.71,RU,1614645932
Nagtipunan,16.2167,121.6,83.23,59,6,1.32,PH,1614645932
Whitehorse,60.7161,-135.0538,28.99,80,75,18.41,CA,1614645933
Vilhena,-12.7406,-60.1458,69.46,93,7,2.42,BR,1614645801
Mingyue,43.1069,128.9217,16.84,79,0,2.75,CN,1614645933
Qasigiannguit,68.8193,-51.1922,6.8,51,55,21.85,GL,1614645867
Scottsbluff,41.8666,-103.6672,53.6,19,1,5.75,US,1614645933
Sorokino,53.75,84.9167,27.64,98,100,12.21,RU,1614645934
Quelimane,-17.8786,36.8883,77.0,94,75,13.8,MZ,1614645934
Izhmorskiy,56.194,86.6414,-4.5,97,100,7.0,RU,1614645934
Aksarayskiy,46.7924,48.0119,32.0,93,90,8.95,RU,1614645934
Hasaki,35.7333,140.8333,63.0,94,75,13.8,JP,1614645792
Dongsheng,39.8161,109.9776,30.61,76,0,13.73,CN,1614645934
Magadan,59.5667,150.8,0.14,65,100,9.08,RU,1614645933
Arinos,-15.9169,-46.1056,69.35,94,92,2.86,BR,1614645935
Nantucket,41.2835,-70.0995,39.2,87,1,21.85,US,1614645935
Puteyets,65.1716,57.091,13.87,95,100,12.24,RU,1614645935
Takoradze,4.8845,-1.7554,79.02,89,100,6.78,GH,1614645935
Tottori-shi,35.5,134.2333,42.8,87,75,25.32,JP,1614645935
Aksu,41.1231,80.2644,27.3,93,0,2.42,CN,1614645936
Quatre Cocos,-20.2078,57.7625,78.8,73,20,5.75,MU,1614645936
Pucallpa,-8.3791,-74.5539,75.2,100,75,3.44,PE,1614645936
Mahon,39.8885,4.2658,55.4,88,20,20.71,ES,1614645937
Muros,42.7762,-9.0603,54.0,80,69,5.99,ES,1614645937
Kathu,7.9178,98.3332,84.99,83,20,6.91,TH,1614645937
Tevaitoa,-16.7833,-151.5,83.07,72,89,5.21,PF,1614645938
Uruçuí,-7.2294,-44.5561,75.38,87,100,2.13,BR,1614645938
Sarany,58.5,58.8833,-1.08,94,100,8.39,RU,1614645938
Gamba,-2.65,10.0,78.85,87,100,6.17,GA,1614645938
Kuusankoski,60.907,26.6244,33.8,80,0,8.05,FI,1614645938
Bachaquero,9.9694,-71.1494,81.05,66,97,9.73,VE,1614645939
Eyemouth,55.8713,-2.0901,37.0,87,6,1.99,GB,1614645939
São Félix do Xingu,-6.6447,-51.995,71.38,97,100,0.94,BR,1614645939
Inongo,-1.95,18.2667,79.74,64,99,1.12,CD,1614645939
Marsh Harbour,26.5412,-77.0636,75.33,75,0,5.86,BS,1614645940
Kon Tum,14.35,108.0,76.68,59,0,1.72,VN,1614645940
Norman Wells,65.282,-126.8329,-13.0,64,40,14.97,CA,1614645940
Mareeba,-17.0,145.4333,77.0,83,90,4.61,AU,1614645940
Jinji,23.2281,110.8261,56.48,63,15,7.05,CN,1614645940
Puerto Madryn,-42.7692,-65.0385,63.14,76,100,24.72,AR,1614645759
Ola,59.5833,151.2833,0.21,68,100,9.44,RU,1614645941
Rocha,-34.4833,-54.3333,68.13,95,52,6.91,UY,1614645941
Barranca,-10.75,-77.7667,72.45,75,93,3.76,PE,1614645699
Am Timan,11.0297,20.2827,72.45,18,0,7.76,TD,1614645941
Manavālakurichi,8.1333,77.3,78.8,89,20,6.89,IN,1614645941
Amahai,-3.3333,128.9167,79.52,80,100,6.82,ID,1614645941
Hay River,60.8156,-115.7999,-5.8,71,100,6.91,CA,1614645885
Kostanay,53.1667,63.5833,3.2,85,75,3.76,KZ,1614645942
Bajil,15.0584,43.2851,75.11,80,89,6.29,YE,1614645942
Cuiluan,47.72,128.648,6.49,81,1,0.98,CN,1614645942
Fort Frances,48.5999,-93.4003,14.0,34,90,3.44,CA,1614645662
Verkhoyansk,67.5447,133.385,-28.44,81,92,2.46,RU,1614645942
Longyearbyen,78.2186,15.6401,21.2,68,75,6.91,SJ,1614645943
Alice Springs,-23.7,133.8833,93.2,18,0,13.8,AU,1614645765
Kambove,-10.8764,26.5969,62.04,97,100,2.86,CD,1614645943
Davorlim,15.25,73.9833,72.66,94,2,3.58,IN,1614645943
Port Hedland,-20.3167,118.5667,86.0,70,40,9.22,AU,1614645943
Andenes,69.3143,16.1194,35.6,75,90,14.97,NO,1614645944
Maltahöhe,-24.8333,16.9833,71.29,48,2,15.57,NA,1614645944
Zhigansk,66.7697,123.3711,-24.18,84,100,3.0,RU,1614645944
Manjeshwar,12.7194,74.8861,77.0,88,20,5.5,IN,1614645944
Urzhum,57.1141,49.9996,21.74,97,100,16.35,RU,1614645944
Loa Janan,-0.583,117.095,84.69,71,27,2.53,ID,1614645944
Khorramshahr,30.4397,48.1664,57.2,82,0,4.61,IR,1614645945
Ol'ga,43.7444,135.2892,18.12,67,100,10.2,RU,1614645945
Watertown,42.3709,-71.1828,37.0,48,1,18.41,US,1614645903
Port Hawkesbury,45.6169,-61.3485,33.01,100,90,27.63,CA,1614645945
Tautira,-17.7333,-149.15,87.8,70,20,10.36,PF,1614645945
Beringovskiy,63.05,179.3167,-6.45,87,100,28.54,RU,1614645946
Ketchikan,55.3422,-131.6461,37.4,81,90,6.91,US,1614645878
Kirakira,-10.4544,161.9205,85.42,71,38,8.79,SB,1614645946
São Paulo de Olivença,-3.3783,-68.8725,72.95,97,100,1.28,BR,1614645946
Kousséri,12.0769,15.0306,78.8,13,0,10.36,CM,1614645946
Iranshahr,27.2025,60.6848,62.6,27,0,1.45,IR,1614645946
Tebingtinggi,3.3285,99.1625,77.0,94,40,2.3,ID,1614646112
Tilichiki,60.4667,166.1,-7.02,83,95,8.08,RU,1614645897
Russell,32.3502,-85.1999,62.6,67,90,4.61,US,1614645927
Saint-Pierre,-21.3393,55.4781,75.2,57,0,6.91,RE,1614645922
Bar Harbor,44.3876,-68.2039,37.0,93,1,4.61,US,1614646074
Auki,-8.7676,160.7034,83.12,75,100,6.82,SB,1614646112
Altay,47.8667,88.1167,18.97,91,100,1.52,CN,1614646112
Coyhaique,-45.5752,-72.0662,64.4,48,0,3.44,CL,1614646110
Maracaju,-21.6144,-55.1683,71.65,92,2,6.24,BR,1614646113
Tubmanburg,6.8708,-10.8172,74.05,96,0,0.76,LR,1614646113
Montijo,38.7067,-8.9739,53.01,93,0,4.61,PT,1614646113
Carahue,-38.7,-73.1667,64.4,88,0,8.05,CL,1614646113
Rosignano Marittimo,43.4079,10.4729,39.99,93,0,3.44,IT,1614646113
Włocławek,52.6482,19.0678,33.01,96,0,3.0,PL,1614646113
Necochea,-38.5473,-58.7368,77.0,68,7,8.01,AR,1614646101
Iracoubo,5.4802,-53.2011,76.62,85,100,7.65,GF,1614646114
Āzādshahr,34.7909,48.5707,34.99,90,32,5.01,IR,1614646114
Tower,51.9167,-8.6,39.2,93,40,6.91,IE,1614646114
Cururupu,-1.8283,-44.8683,74.43,91,100,2.51,BR,1614646114
Río de Jesús,7.9844,-81.1631,78.57,64,82,3.76,PA,1614646114
Dunedin,-45.8742,170.5036,64.99,82,0,21.99,NZ,1614646115
Talaya,61.3833,152.75,-21.73,77,100,2.53,RU,1614645859
Verkhnevilyuysk,63.4453,120.3167,-30.93,97,46,0.85,RU,1614646115
Yeppoon,-23.1333,150.7333,87.8,51,75,11.5,AU,1614646115
Baijiantan,45.6333,85.1833,14.0,76,100,1.21,CN,1614646115
Walvis Bay,-22.9575,14.5053,68.0,77,0,5.75,NA,1614646115
Sacramento,38.4666,-121.3177,68.0,18,1,2.15,US,1614645884
Saint-Leu,-21.15,55.2833,73.99,58,0,2.35,RE,1614646116
San Angelo,31.4638,-100.437,53.6,40,90,11.5,US,1614645849
Santa Cruz de la Sierra,-17.8,-63.1667,82.4,69,17,2.3,BO,1614645905
Bontang,0.1333,117.5,82.11,75,100,6.02,ID,1614646116
Mercedes,-34.6515,-59.4307,75.99,82,35,1.99,AR,1614646117
Kisangani,0.5167,25.2,75.38,52,100,1.03,CD,1614646117
Grand Bank,47.0999,-55.765,31.73,95,100,18.34,CA,1614646117
Sangar,63.9242,127.4739,-24.95,85,99,4.45,RU,1614646118
Biltine,14.5333,20.9167,73.51,18,0,21.59,TD,1614646118
Nisshin,35.1658,136.964,61.0,94,75,8.05,JP,1614646118
Savinka,50.0785,47.0994,12.58,96,12,9.37,RU,1614646118
Camacupa,-12.0167,17.4833,61.25,97,100,3.29,AO,1614646118
Jati,24.3539,68.2671,65.08,23,0,7.02,PK,1614646118
Kysyl-Syr,63.8986,122.7617,-31.45,97,65,2.04,RU,1614646118
Johor Bahru,1.4655,103.7578,77.0,88,75,8.05,MY,1614646118
Junín,-34.5838,-60.9433,72.0,46,71,10.74,AR,1614646119
Buraidah,26.326,43.975,53.6,82,0,5.75,SA,1614646119
Florianópolis,-27.6146,-48.5012,79.0,94,75,3.44,BR,1614645877
Leshan,29.5623,103.7639,52.83,52,4,0.74,CN,1614646119
Chicama,-7.8447,-79.1469,76.66,60,26,4.68,PE,1614646119
Terre Haute,39.4667,-87.4139,37.4,52,20,10.36,US,1614646120
